[{"":"","ΕΠΩΝΥΜΙΑ ΚΑΤΑΣΤΗΜΑΤΟΣ":"Beauty Philosophy by Santy","NAME":"BEAUTY PHILOSOPHY BY SANTY","Address":"Κέντρο αισθητικής, Έβανς 34, Ηράκλειο Κρήτης, 2810 222003-6984109730, asantybeauty@gmail.com","TIMES":"Τρ-Πεμ-Παρ 9.00-21.00 & Δευτ-Τετ-Σαβ 10.00-16.00","CHANGING ROOM":"όχι (καναπές)","POSTCODE":"","LONGITUDE":"35°20'14.7\"N","LATITUDE":"25°08'01.9\"E"},{"":"","ΕΠΩΝΥΜΙΑ ΚΑΤΑΣΤΗΜΑΤΟΣ":"","NAME":"ΑΓΓΕΛΙΔΑΚΗ ΜΑΡΙΑ","Address":"Φαρμακείο, Αγίου Μηνά 40, Ηράκλειο Κρήτης, 2810 221084/286864, www.nataliaslab.gr","TIMES":"Καθ. 8.00-14.00, Τετ 8.00-14.00, Σαβ. 9.00-14.00 & 18.00-21.00","CHANGING ROOM":"όχι","POSTCODE":"","LONGITUDE":"35°20'14.2\"N","LATITUDE":"25°07'48.9\"E"},{"":"","ΕΠΩΝΥΜΙΑ ΚΑΤΑΣΤΗΜΑΤΟΣ":"","NAME":"Μ. ΜΑΡΑΖΑΚΗ","Address":"Μαιευτήρας-Γυναικολόγος, Πλατεία Κορνάρου 31, Ηράκλειο Κρήτης, 2811 103358-6932703606, info@MarazakiMD.gr","TIMES":"Κάθε μέρα 10.00-13.00 & 18.00-20.00 εκτός από Τετ. &Παρ. απόγευμα","CHANGING ROOM":"όχι (θα φέρει)","POSTCODE":"71201","LONGITUDE":"35°20'11.0\"N","LATITUDE":"25°08'02.0\"E"},{"":"","ΕΠΩΝΥΜΙΑ ΚΑΤΑΣΤΗΜΑΤΟΣ":"","NAME":"ΑSTORIA CAPSIS HOTEL - EΛΛΗΝΙΚΑ ΞΕΝΟΔΟΧΕΙΑ ΚΑΨΗ A.E.","Address":"Ξενοδοχείο, Πλατεία Ελευθερίας 1, Ηράκλειο Κρήτης, 2810 343080/343082, info@astoriacapsis.gr","TIMES":"24 ώρες το 24 ώρες","CHANGING ROOM":"ναι","POSTCODE":"71201","LONGITUDE":"35°20'18.0\"N","LATITUDE":"25°08'11.0\"E"},{"":"","ΕΠΩΝΥΜΙΑ ΚΑΤΑΣΤΗΜΑΤΟΣ":"","NAME":"ΕΙΡΗΝΗ ΜΠΙΜΠΑΚΗ","Address":"Παιδίατρος, Κωνσταντινίδη 9 (Ιωνίας & Γ.Παπανδρέου), Ηράκλειο Κρήτης","TIMES":"","CHANGING ROOM":"","POSTCODE":"","LONGITUDE":"35°19'48.0\"N","LATITUDE":"25°08'05.6\"E"},{"":"","ΕΠΩΝΥΜΙΑ ΚΑΤΑΣΤΗΜΑΤΟΣ":"","NAME":"CRETA AQUARIUM","Address":"Ενυδρείο, Πρώην Αμερικανική Βάση Γουρνών, Ηράκλειο Κρήτης, 2810 337880, thalassocosmos@cretaquarium.gr","TIMES":"Καθημερινά & ΣΚ 9.30 - 17.00","CHANGING ROOM":"ναι","POSTCODE":"","LONGITUDE":"35°19'56.5\"N","LATITUDE":"25°16'56.6\"E"},{"":"","ΕΠΩΝΥΜΙΑ ΚΑΤΑΣΤΗΜΑΤΟΣ":"","NAME":"IXΘΕΙΣ","Address":"Πισίνα, Κλινική Αγίου Λουκά, Θεσσαλονίκη - Πανόραμα, 6955066413","TIMES":"","CHANGING ROOM":"","POSTCODE":"55236","LONGITUDE":"40°35'38.6\"N","LATITUDE":"23°00'55.6\"E"},{"":"","ΕΠΩΝΥΜΙΑ ΚΑΤΑΣΤΗΜΑΤΟΣ":"","NAME":"IXΘΕΙΣ","Address":"Πισίνα, Πισίνα στο ξενοδοχείο Egnatia Palace, Θεσσαλονίκη, 54631, info@babyswimthessaloniki.gr","TIMES":"Καθημερινά και ΣΚ 10.00-14.00 & 15.00-21.00","CHANGING ROOM":"ναι","POSTCODE":"","LONGITUDE":"40°38'06.8\"N","LATITUDE":"22°56'43.5\"E"},{"":"","ΕΠΩΝΥΜΙΑ ΚΑΤΑΣΤΗΜΑΤΟΣ":"","NAME":"ΓΕΜΕΝΤΖΟΓΛΟΥ ΑΝ. ΣΟΦΙΑ & ΣΙΑ Ε.Ε, GOLGI MEDICAL","Address":"Ιατρικά προϊόντα - βοηθήματα, Φιλικής Εταιρίας 11, Καβάλα, 25102 24094-6949731836, sofiageme@gmail.com","TIMES":"","CHANGING ROOM":"","POSTCODE":"65403","LONGITUDE":"40°56'09.0\"N","LATITUDE":"24°24'23.9\"E"},{"":"","ΕΠΩΝΥΜΙΑ ΚΑΤΑΣΤΗΜΑΤΟΣ":"","NAME":"\"ΛΙΛΟΥ\"","Address":"Παπούτσια παιδικά, Ταγματάρχη Φουλεδάκη 14, Φλώρινα, 23850 44144","TIMES":"","CHANGING ROOM":"","POSTCODE":"","LONGITUDE":"40°46'43.6\"N","LATITUDE":"21°24'18.8\"E"},{"":"","ΕΠΩΝΥΜΙΑ ΚΑΤΑΣΤΗΜΑΤΟΣ":"","NAME":"ΆΤΡΟΠΟΣ","Address":"Συμβουλευτική εγκύων, Σαχτούρη 23, Πάτρα, 26140 08854, info@atroposhelp.gr","TIMES":"Καθ.10.00-21.00 Σαβ. 8.00-15.00","CHANGING ROOM":"όχι","POSTCODE":"26222","LONGITUDE":"38°14'36.5\"N","LATITUDE":"21°43'49.1\"E"},{"":"","ΕΠΩΝΥΜΙΑ ΚΑΤΑΣΤΗΜΑΤΟΣ":"","NAME":"PET CITY AEBE","Address":"Pet shop, Λεωφ. Ελ. Βενιζέλου 117 & Αγ. Πάντων 80, Καλλιθέα, 210 9510330, customercare@petcity.gr","TIMES":"Καθ. 8.00-21.00 Σαβ. 8.00-20.00","CHANGING ROOM":"όχι","POSTCODE":"","LONGITUDE":"37°57'33.3\"N","LATITUDE":"23°42'25.1\"E"},{"":"","ΕΠΩΝΥΜΙΑ ΚΑΤΑΣΤΗΜΑΤΟΣ":"","NAME":"ΗΛΙΑ ΕΛΕΝΗ","Address":"Φαρμακείο, Γερ. Καραβαγγέλη 34, Καλαμαριά, 2310 430479-6972336426, elenidelsol@hotmail.com","TIMES":"Δευτ. &Τετ. 9.00-14.30, Τρ.-Πεμ.-Παρ. 9.00-14.00 & 17.00 - 20.30","CHANGING ROOM":"κρεβατάκι","POSTCODE":"55134","LONGITUDE":"40°35'04.3\"N","LATITUDE":"22°58'03.3\"E"},{"":"","ΕΠΩΝΥΜΙΑ ΚΑΤΑΣΤΗΜΑΤΟΣ":"","NAME":"BALOO TOYS","Address":"Παιχνίδια, Λ. Καλοκαιρινού 51, Ηράκλειο Κρήτης, 2810 223328-6936907376, balootoys@yahoo.gr","TIMES":"Δευτ. Τετ. Σαβ. 9.00-14.30 & Τρ. Πεμ. Παρ. 9.00-14.00 & 17.00 - 21.00","CHANGING ROOM":"όχι","POSTCODE":"71201","LONGITUDE":"35°20'19.0\"N","LATITUDE":"25°07'50.1\"E"},{"":"","ΕΠΩΝΥΜΙΑ ΚΑΤΑΣΤΗΜΑΤΟΣ":"","NAME":"BAMBINO","Address":"Είδη βρεφανάπτυξης, Μπιζανίου 1, Ηράκλειο Κρήτης, 2810 342072/250877, bambinoshops@gmail.com","TIMES":"Δευτ. Τετ. Σαβ. 8.30 - 14.30 & Τρ. Πεμ. Παρ. 8.30 - 14.00 & 17.00-21.00","CHANGING ROOM":"ναι","POSTCODE":"71201","LONGITUDE":"35°20'10.8\"N","LATITUDE":"25°07'57.8\"E"},{"":"","ΕΠΩΝΥΜΙΑ ΚΑΤΑΣΤΗΜΑΤΟΣ":"","NAME":"BAMBINO","Address":"Είδη βρεφανάπτυξης, Λεωφόρος 62 Μαρτύρων 29, Ηράκλειο Κρήτης, 2810 342072","TIMES":"Δευτ. Τετ. Σαβ. 8.30 - 14.30 & Τρ. Πεμ. Παρ. 8.30 - 14.00 & 17.00-21.00","CHANGING ROOM":"ναι","POSTCODE":"71304","LONGITUDE":"35°20'10.4\"N","LATITUDE":"25°07'20.1\"E"},{"":"","ΕΠΩΝΥΜΙΑ ΚΑΤΑΣΤΗΜΑΤΟΣ":"","NAME":"MAMACORNER","Address":"Είδη εγκυμοσύνης, Λ. Κηφισίας 56, Αθήνα, 210 6196062-6979979627, info@mamacorner.gr","TIMES":"Δευτ. - Σαβ. 8.00-23.00  & Για υποκατάστημα Λυττώ:Δευτ.-Σαβ. 8.00-23.00, Κυρ. 11.00-20.00","CHANGING ROOM":"ναι","POSTCODE":"","LONGITUDE":"37°59'23.7\"N","LATITUDE":"23°45'54.3\"E"},{"":"","ΕΠΩΝΥΜΙΑ ΚΑΤΑΣΤΗΜΑΤΟΣ":"","NAME":"MAMACORNER  (ΥΠΟΚΑΤΑΣΤΗΜΑ ΛΗΤΩ)","Address":"Είδη εγκυμοσύνης, Μουσών 7-9, Αθήνα","TIMES":"","CHANGING ROOM":"","POSTCODE":"11524","LONGITUDE":"37°59'56.2\"N","LATITUDE":"23°46'05.1\"E"},{"":"","ΕΠΩΝΥΜΙΑ ΚΑΤΑΣΤΗΜΑΤΟΣ":"","NAME":"ΑNTONELLA","Address":"Ένδυση - Παπούτσια, Οδός 1821 93, Ηράκλειο Κρήτης, 2810 229820-6974073857, antonella1821@gmail.com","TIMES":"Δευτ. Τετ. 9.15-15.00 Τρ. Πεμ. Παρ. 9.15 - 21.00 Σαβ. 9.15-15.00","CHANGING ROOM":"όχι","POSTCODE":"71201","LONGITUDE":"35°20'11.9\"N","LATITUDE":"25°07'54.7\"E"},{"":"","ΕΠΩΝΥΜΙΑ ΚΑΤΑΣΤΗΜΑΤΟΣ":"","NAME":"WELCOME STORES ΣΑΛΤΣΙΔΗΣ","Address":"Ηλεκτρικές συσκευές, Αγίου Γεωργίου 9, Κιλκίς, 23410 22701-6943820024, welcomekilkis@ath.forthnet.gr","TIMES":"Δευτ. & Τετ. 8.30, Τρ.-Πεμ.-Παρ. 8.30-14.00 & 17.30-21.00 Σαβ. 8.30-15.00","CHANGING ROOM":"όχι","POSTCODE":"","LONGITUDE":"40°59'40.2\"N","LATITUDE":"22°52'25.8\"E"},{"":"","ΕΠΩΝΥΜΙΑ ΚΑΤΑΣΤΗΜΑΤΟΣ":"","NAME":"Π.ΚΑΪΚΟΝΙΔΗΣ ΕΠΕ, ΜEDELA GREECE KLINIKUM","Address":"Ιατρικά είδη, Παπαδιαμαντοπούλου 65, Αθήνα, 210 7485752-6979222622, Info@klinikum.gr","TIMES":"","CHANGING ROOM":"","POSTCODE":"11527","LONGITUDE":"37°58'49.0\"N","LATITUDE":"23°45'35.9\"E"},{"":"","ΕΠΩΝΥΜΙΑ ΚΑΤΑΣΤΗΜΑΤΟΣ":"","NAME":"Π.ΚΑΪΚΟΝΙΔΗΣ ΕΠΕ, ΜEDELA GREECE KLINIKUM","Address":"Ιατρικά είδη, Νάτσινα 25 και Νεμέας, Θεσσαλονίκη, 6979222622, Info@klinikum.gr","TIMES":"","CHANGING ROOM":"","POSTCODE":"54249","LONGITUDE":"40°36'13.6\"N","LATITUDE":"22°57'57.5\"E"},{"":"","ΕΠΩΝΥΜΙΑ ΚΑΤΑΣΤΗΜΑΤΟΣ":"","NAME":"Π.ΚΑΪΚΟΝΙΔΗΣ ΕΠΕ, ΜEDELA GREECE KLINIKUM","Address":"Ιατρικά είδη, Νάτσινα 36 και Νεμέας, Θεσσαλονίκη, 2310 328375, Info@klinikum.gr","TIMES":"","CHANGING ROOM":"","POSTCODE":"54249","LONGITUDE":"40°36'13.4\"N","LATITUDE":"22°57'57.4\"E"},{"":"","ΕΠΩΝΥΜΙΑ ΚΑΤΑΣΤΗΜΑΤΟΣ":"","NAME":"REMO PIZZA","Address":"Εστιατόριο-Πίτσα, 21 Ιουνίου 60-62, Κιλκίς, 23410 25467/25905","TIMES":"","CHANGING ROOM":"","POSTCODE":"61100","LONGITUDE":"40°59'31.2\"N","LATITUDE":"22°52'20.9\"E"},{"":"","ΕΠΩΝΥΜΙΑ ΚΑΤΑΣΤΗΜΑΤΟΣ":"","NAME":"PLAY & LEARN- ΜΑΘΑΙΝΩ ΑΓΓΛΙΚΑ ΠΑΙΖΟΝΤΑΣ","Address":"Εκπαίδευση - αγγλικά, 62 Μαρτύρων 41, Ηράκλειο Κρήτης, agapi.liapaki@gmail.com","TIMES":"","CHANGING ROOM":"","POSTCODE":"","LONGITUDE":"35°20'09.4\"N","LATITUDE":"25°07'14.8\"E"},{"":"","ΕΠΩΝΥΜΙΑ ΚΑΤΑΣΤΗΜΑΤΟΣ":"","NAME":"ΜAMMA BABY","Address":"Είδη εγκυμοσύνης & βρεφικά, Αθανάσιου Διάκου 16, Τρίκαλα, mammababy2015@gmail.com","TIMES":"","CHANGING ROOM":"","POSTCODE":"71304","LONGITUDE":"39°33'26.5\"N","LATITUDE":"21°46'07.8\"E"},{"":"","ΕΠΩΝΥΜΙΑ ΚΑΤΑΣΤΗΜΑΤΟΣ":"","NAME":"ΕΜΜΑΝΟΥΗΛ ΜΠΕΖΕΣ","Address":"Ζαχαροπλαστείο, Κων/νου Καραμανλή 117, Θεσσαλονίκη, 2310 323247-6945872433, em.bezes@gmail.com","TIMES":"Κάθε μέρα 8.00-22.30","CHANGING ROOM":"ναι","POSTCODE":"54249","LONGITUDE":"40°36'20.6\"N","LATITUDE":"22°57'50.1\"E"},{"":"","ΕΠΩΝΥΜΙΑ ΚΑΤΑΣΤΗΜΑΤΟΣ":"","NAME":"\"ΠΑΠΟΥΤΣΩΜΕΝΟΣ ΛΥΚΟΣ\"","Address":"Βιβλιοπωλείο παιδικό/εφηβικό, Καγιαμπή 3, Ηράκλειο Κρήτης, papoutsomenoslykos@yahoo.gr","TIMES":"","CHANGING ROOM":"","POSTCODE":"","LONGITUDE":"35°20'18.8\"N","LATITUDE":"25°07'56.6\"E"},{"":"","ΕΠΩΝΥΜΙΑ ΚΑΤΑΣΤΗΜΑΤΟΣ":"","NAME":"ΒISTROTECA (ΑΘΑΝΑΣΙΟΥ Γ. - ΑΘΑΝΑΣΙΟΥ Μ. & ΣΙΑ Ε.Ε.)","Address":"Καφέ-Μπαρ, Πλ. Βασ. Γεωργίου - Μητροπέτροβα 11 & Σιδ. Σταθμού, Καλαμάτα, 27210 97431","TIMES":"Κάθε μέρα 7.00-2.00","CHANGING ROOM":"όχι","POSTCODE":"","LONGITUDE":"37°02'19.9\"N","LATITUDE":"22°06'37.8\"E"},{"":"","ΕΠΩΝΥΜΙΑ ΚΑΤΑΣΤΗΜΑΤΟΣ":"","NAME":"AMBASSADOR (TΣΑΚΩΝΑΣ - ΣΠΗΛΙΩΤΗΣ & ΣΙΑ Ε.Ε.)","Address":"Καφέ, Ιατροπούλου και Δαγρέ 2Α, Καλαμάτα, 27210 25898","TIMES":"Κάθε μέρα 8.00-00.00","CHANGING ROOM":"όχι","POSTCODE":"","LONGITUDE":"37°02'15.1\"N","LATITUDE":"22°06'38.4\"E"},{"":"","ΕΠΩΝΥΜΙΑ ΚΑΤΑΣΤΗΜΑΤΟΣ":"","NAME":"ΠΑΝΑΓΑΚΗΣ ΧΑΡΑΛ. & ΣΙΑ Ο.Ε.","Address":"Φαρμακείο, Σιδ. Σταθμού 7, Καλαμάτα, 27210 27022, x.panagakis@gmail.com","TIMES":"Δευτ. - Σαβ. 8.00- 21.30","CHANGING ROOM":"όχι","POSTCODE":"24133","LONGITUDE":"37°02'18.8\"N","LATITUDE":"22°06'37.1\"E"},{"":"","ΕΠΩΝΥΜΙΑ ΚΑΤΑΣΤΗΜΑΤΟΣ":"","NAME":"ΒΑΣΙΛΙΚΗ ΚΟΤΤΑΡΙΔΗ Ε.Ε.Ε.","Address":"Ένδυση - παιδικά, Αριστομένους 51 & Αριστομένους 53, Καλαμάτα, 27210 91180","TIMES":"Δευτ. Τετ. 8.30 -14.00, Τρ. Πεμ. Παρ. 8.30 -14.00 & 17.30 - 20.30","CHANGING ROOM":"όχι","POSTCODE":"","LONGITUDE":"37°02'16.1\"N","LATITUDE":"22°06'40.2\"E"},{"":"","ΕΠΩΝΥΜΙΑ ΚΑΤΑΣΤΗΜΑΤΟΣ":"","NAME":"Γ. ΧΙΩΤΗ","Address":"Παιδίατρος, Αντωνοπούλου 4, Καλαμάτα, 27210 23445","TIMES":"Δευτ. Τρ. Πεμ. Παρ. 9.00-19.00 Τετ. 9.00-15.00","CHANGING ROOM":"ναι","POSTCODE":"","LONGITUDE":"37°02'19.5\"N","LATITUDE":"22°06'35.7\"E"},{"":"","ΕΠΩΝΥΜΙΑ ΚΑΤΑΣΤΗΜΑΤΟΣ":"","NAME":"FUNNY LAND","Address":"Παιδότοπος, Λ. Ικάρου  13, Ηράκλειο Κρήτης, 2810 342974-6946792954, funnyland@otenet.gr","TIMES":"Κάθε μέρα 10.00 -23.00","CHANGING ROOM":"ναι","POSTCODE":"71307","LONGITUDE":"35°20'19.7\"N","LATITUDE":"25°08'28.4\"E"},{"":"","ΕΠΩΝΥΜΙΑ ΚΑΤΑΣΤΗΜΑΤΟΣ":"","NAME":"GOODY᾽S","Address":"Εστιατόριο-fast food, Μιχελιδάκη 6, Ηράκλειο Κρήτης, 2810 341091","TIMES":"Κάθε μέρα 10.00- 00.00","CHANGING ROOM":"ναι","POSTCODE":"71201","LONGITUDE":"35°20'20.8\"N","LATITUDE":"25°07'52.1\"E"},{"":"","ΕΠΩΝΥΜΙΑ ΚΑΤΑΣΤΗΜΑΤΟΣ":"","NAME":"GRAND PIZZA & GRIL","Address":"Εστιατόριο, Λ. 62 Μαρτύρων 300, Ηράκλειο Κρήτης, 2810 223223, info@grand.gr","TIMES":"Κάθε μέρα 8.00- 1.00","CHANGING ROOM":"ναι","POSTCODE":"71303","LONGITUDE":"35°19'49.7\"N","LATITUDE":"25°06'37.8\"E"},{"":"","ΕΠΩΝΥΜΙΑ ΚΑΤΑΣΤΗΜΑΤΟΣ":"","NAME":"HILFIGER","Address":"Ένδυση, Καλοκαιρινού Λυσιμάχου 15-17, Ηράκλειο Κρήτης, 2810 390074-6937037647","TIMES":"Δευτ. Τετ. Σαβ. 9.00-15.00 , Τρ. Πεμ. Παρ. 9.00-14.30 &17.30 - 21.00","CHANGING ROOM":"Καναπές","POSTCODE":"71202","LONGITUDE":"35°20'31.3\"N","LATITUDE":"25°07'55.8\"E"},{"":"","ΕΠΩΝΥΜΙΑ ΚΑΤΑΣΤΗΜΑΤΟΣ":"","NAME":"HONDOS CENTER","Address":"Καλλυντικά, 25ης Αυγούστου και Κορωναίου, Ηράκλειο Κρήτης, 2810 337900, i.vamvaka@hondos.gr","TIMES":"Κάθε μέρα 9.00-21.00 , Σάββατο 9.00-18.00","CHANGING ROOM":"ναι","POSTCODE":"71202","LONGITUDE":"35°20'26.5\"N","LATITUDE":"25°08'02.8\"E"},{"":"","ΕΠΩΝΥΜΙΑ ΚΑΤΑΣΤΗΜΑΤΟΣ":"","NAME":"HOPPY FEET","Address":"Παπούτσια παιδικά, Καλοκαιρινού 56, Ηράκλειο Κρήτης, 2810 228518, hoppy.feet@yahoo.gr","TIMES":"Δευτ. Τετ. Σαβ. 9.00-14.30 & Τρ. Πεμ. Παρ. 9.00-14.00 & 17.00 - 21.00","CHANGING ROOM":"ναι","POSTCODE":"71202","LONGITUDE":"35°20'19.3\"N","LATITUDE":"25°07'50.9\"E"},{"":"","ΕΠΩΝΥΜΙΑ ΚΑΤΑΣΤΗΜΑΤΟΣ":"","NAME":"LAPIN HOUSE","Address":"Ένδυση - παιδικά, Οδός 1821 31, Ηράκλειο Κρήτης, 6944275026, papoutsakis@patris.gr","TIMES":"Δευτ. Τετ. 9.00-14.30 & Τρ. Πεμ. Παρ. 9.00-14.00 & 17.30 - 21.00  & Σαβ. 9.00-16.00","CHANGING ROOM":"όχι","POSTCODE":"71202","LONGITUDE":"35°20'16.8\"N","LATITUDE":"25°07'57.4\"E"},{"":"","ΕΠΩΝΥΜΙΑ ΚΑΤΑΣΤΗΜΑΤΟΣ":"","NAME":"ΒΙΒΛΙΟΠΟΛΙΣ","Address":"Βιβλιοπωλείο, Νικηταρά 3α, Καλαμάτα, 27210 28828, vivliopolis@gmail.com","TIMES":"Δευτ. , Τρ. Πεμ. Παρ. 8.30-14.30 & 17.30 - 21.00 , Τετ. 8.30- 14.30 Σαβ. 9.00 - 15.00","CHANGING ROOM":"όχι","POSTCODE":"","LONGITUDE":"37°01'35.5\"N","LATITUDE":"22°07'37.7\"E"},{"":"","ΕΠΩΝΥΜΙΑ ΚΑΤΑΣΤΗΜΑΤΟΣ":"","NAME":"ΠΟΛΥΧΡΥΣΟΝ","Address":"Κοσμηματοπωλείο, Αριστομένους 39, Καλαμάτα, 27210 80106","TIMES":"Δευτ. Τετ. 8.30 -14.00, Τρ. Πεμ. Παρ. 8.30 -14.00 & 17.30 - 21.00","CHANGING ROOM":"όχι","POSTCODE":"","LONGITUDE":"37°02'20.6\"N","LATITUDE":"22°06'41.4\"E"},{"":"","ΕΠΩΝΥΜΙΑ ΚΑΤΑΣΤΗΜΑΤΟΣ":"","NAME":"DUR (ΔΟΥΡΟΣ  Α.Ε.)","Address":"Ένδυση - ανδρικά, Αριστομένους 29, Καλαμάτα, 27210 94746, shopkalamata@dur.gr","TIMES":"Δευτ. Τετ. 9.00 -14.30, Τρ. Πεμ. Παρ. 9.00 -14.00 & 18.00 - 21.00","CHANGING ROOM":"όχι","POSTCODE":"","LONGITUDE":"37°02'24.1\"N","LATITUDE":"22°06'41.5\"E"},{"":"","ΕΠΩΝΥΜΙΑ ΚΑΤΑΣΤΗΜΑΤΟΣ":"","NAME":"ΧΑΡΑΛΑΜΠΟΥΣ","Address":"Κοσμηματοπωλείο, Αριστομένους 41, Καλαμάτα, 27210 94474","TIMES":"Δευτ. Τετ. 9.00 -14.30, Τρ. Πεμ. Παρ. 9.00 -14.00 & 18.00 - 21.00","CHANGING ROOM":"ναι","POSTCODE":"","LONGITUDE":"37°02'20.0\"N","LATITUDE":"22°06'41.6\"E"},{"":"","ΕΠΩΝΥΜΙΑ ΚΑΤΑΣΤΗΜΑΤΟΣ":"","NAME":"BODEGA (ΚΟΛΟΒΟΣ ΙΩΑΝΝΗΣ & ΣΙΑ)","Address":"Εστιατόριο - καφέ, Πλ. Βασιλέως Γεωργίου 24, Καλαμάτα, 27210 80268","TIMES":"Κάθε μέρα 8.00 - 00.00","CHANGING ROOM":"όχι","POSTCODE":"","LONGITUDE":"37°02'25.6\"N","LATITUDE":"22°06'40.4\"E"},{"":"","ΕΠΩΝΥΜΙΑ ΚΑΤΑΣΤΗΜΑΤΟΣ":"","NAME":"ΛΩΤΟΣ Ο.Ε","Address":"Καφέ, Πλ. Βασιλέως Γεωργίου 26, Καλαμάτα, 27210 83565","TIMES":"Κάθε μέρα 7.00-00.00","CHANGING ROOM":"όχι","POSTCODE":"","LONGITUDE":"37°02'25.7\"N","LATITUDE":"22°06'40.5\"E"},{"":"","ΕΠΩΝΥΜΙΑ ΚΑΤΑΣΤΗΜΑΤΟΣ":"","NAME":"ΗΡΑ","Address":"Βρεφικά είδη, Κολοκοτρώνη 7, Καλαμάτα, 27210 23911, irakalamata@hotmail.gr","TIMES":"Δευτ. Τετ. 8.30 -14.30, Τρ. Πεμ. Παρ. 8.30 -14.00 & 17.30 - 20.30","CHANGING ROOM":"ναι","POSTCODE":"","LONGITUDE":"37°02'29.3\"N","LATITUDE":"22°06'45.0\"E"},{"":"","ΕΠΩΝΥΜΙΑ ΚΑΤΑΣΤΗΜΑΤΟΣ":"","NAME":"ΗΡΑ","Address":"Βρεφικά είδη, Κολοκοτρώνη 7, Καλαμάτα, 27210 26753, irakalamata@hotmail.gr","TIMES":"Δευτ. Τετ. 9.00 -14.30, Τρ. Πεμ. Παρ. 9.00 -14.00 & 17.30 - 21.00","CHANGING ROOM":"ναι","POSTCODE":"","LONGITUDE":"37°02'29.3\"N","LATITUDE":"22°06'45.0\"E"},{"":"","ΕΠΩΝΥΜΙΑ ΚΑΤΑΣΤΗΜΑΤΟΣ":"","NAME":"ADELANTE","Address":"Καφέ, Σιδ. Σταθμού 1, Καλαμάτα, 27210 92772","TIMES":"","CHANGING ROOM":"","POSTCODE":"","LONGITUDE":"37°02'20.3\"N","LATITUDE":"22°06'39.2\"E"},{"":"","ΕΠΩΝΥΜΙΑ ΚΑΤΑΣΤΗΜΑΤΟΣ":"","NAME":"COSMOS","Address":"Ένδυση - αθλητικά, Αριστομένους 39, Καλαμάτα, 27210 23300","TIMES":"Δευτ. Τετ. 9.00 -14.00, Τρ. Πεμ. Παρ. 9.00 -14.00 & 18.00 - 21.00","CHANGING ROOM":"όχι","POSTCODE":"","LONGITUDE":"37°02'20.7\"N","LATITUDE":"22°06'41.4\"E"},{"":"","ΕΠΩΝΥΜΙΑ ΚΑΤΑΣΤΗΜΑΤΟΣ":"","NAME":"ΑΦΟΙ ΜΙΧΟΠΟΥΛΟΙ","Address":"Οπτικά, Αριστομένους 41, Καλαμάτα, 27210 21638","TIMES":"Δευτ. Τετ. 9.00 -14.00, Τρ. Πεμ. Παρ. 9.00 -14.00 & 18.00 - 21.00","CHANGING ROOM":"όχι","POSTCODE":"24100","LONGITUDE":"37°02'19.9\"N","LATITUDE":"22°06'41.6\"E"},{"":"","ΕΠΩΝΥΜΙΑ ΚΑΤΑΣΤΗΜΑΤΟΣ":"","NAME":"ΣΥΣΤΕΓΑΣΜΕΝΑ ΦΑΡΜΑΚΕΙΑ, ΚΩΝ/ΝΟΥ ΠΡΑΤΤΗ Ο.Ε.","Address":"Φαρμακείο, Αιπύτου 22 & Πλ. 23ης Μαρτίου, Καλαμάτα, 27210 83888","TIMES":"Δευτ. Τετ. 8.00 -14.00, Τρ. Πεμ. Παρ. 8.00 -14.00 & 17.00 - 20.30","CHANGING ROOM":"όχι","POSTCODE":"","LONGITUDE":"37°02'35.2\"N","LATITUDE":"22°06'47.2\"E"},{"":"","ΕΠΩΝΥΜΙΑ ΚΑΤΑΣΤΗΜΑΤΟΣ":"","NAME":"ΒΟΥΤΕΛΗΣ ΛΕΩΝΙΔΑΣ","Address":"Παπούτσια, Πλατεία 23ης Μαρτίου, Καλαμάτα, 27210 86659","TIMES":"Δευτ. Τετ. 9.00 -14.00, Τρ. Πεμ. Παρ. 9.00 -14.00 & 17.30 - 21.00","CHANGING ROOM":"όχι","POSTCODE":"","LONGITUDE":"37°02'33.7\"N","LATITUDE":"22°06'48.4\"E"},{"":"","ΕΠΩΝΥΜΙΑ ΚΑΤΑΣΤΗΜΑΤΟΣ":"","NAME":"ΦΑΡΜΑΚΕΙΟ, Θ. ΜΙΣΕΡΟΣ Ο.Ε","Address":"Φαρμακείο, Αντωνοπούλου 3, Καλαμάτα, 27210 51898","TIMES":"Δευτ. Τετ. 8.00 -14.00, Τρ. Πεμ. Παρ. 8.00 -14.00 & 17.00 - 20.30","CHANGING ROOM":"όχι","POSTCODE":"","LONGITUDE":"37°02'20.0\"N","LATITUDE":"22°06'35.6\"E"},{"":"","ΕΠΩΝΥΜΙΑ ΚΑΤΑΣΤΗΜΑΤΟΣ":"","NAME":"ΤΟ ΜΠΑΚΑΛΙΚΟ ΤΗΣ ΣΕΒΑΣΤΗΣ","Address":"Τρόφιμα, Αγ. Δημητρίου 27, Καλαμάτα, 27210 22380, sevasti.skoulika@gmail.com","TIMES":"Κάθε μέρα 7.00- 14.30 & 17.00-21.00","CHANGING ROOM":"όχι","POSTCODE":"24100","LONGITUDE":"37°02'20.7\"N","LATITUDE":"22°06'05.2\"E"},{"":"","ΕΠΩΝΥΜΙΑ ΚΑΤΑΣΤΗΜΑΤΟΣ":"","NAME":"ΒΙΒΛΙΑ- ΧΑΡΤΙΚΑ - ΔΩΡΑ","Address":"Βιβλιοπωλείο-χαρτικά-δώρα, Βασ. Όλγας 6 & Αριστοδήμου, Καλαμάτα, 27210 93882","TIMES":"","CHANGING ROOM":"","POSTCODE":"","LONGITUDE":"37°02'10.2\"N","LATITUDE":"22°06'42.2\"E"},{"":"","ΕΠΩΝΥΜΙΑ ΚΑΤΑΣΤΗΜΑΤΟΣ":"","NAME":"CROCODILINO","Address":"Παπούτσια - παιδικά, Αριστοδήμου 15 & Βασ. Όλγας 6, Καλαμάτα, 27210 84880","TIMES":"Δευτ. Τετ. 9.00 -14.00, Τρ. Πεμ. Παρ. 9.00 -14.00 & 17.30 - 21.00","CHANGING ROOM":"","POSTCODE":"","LONGITUDE":"37°02'10.2\"N","LATITUDE":"22°06'42.2\"E"},{"":"","ΕΠΩΝΥΜΙΑ ΚΑΤΑΣΤΗΜΑΤΟΣ":"","NAME":"ISO","Address":"Ένδυση - γυναικεία, Αριστομένους 65, Καλαμάτα,  27210 87989/999","TIMES":"","CHANGING ROOM":"","POSTCODE":"","LONGITUDE":"37°02'12.2\"N","LATITUDE":"22°06'39.6\"E"},{"":"","ΕΠΩΝΥΜΙΑ ΚΑΤΑΣΤΗΜΑΤΟΣ":"","NAME":"ΙΑΤΡΙΚΑ-ΟΡΘΟΠΕΔΙΚΑ - COCO-MAT , ΚΑΤΣΟΥΛΑΣ","Address":"Ορθοπεδικά είδη, 28ης Οκτωβρίου 34, Τρίπολη, 2710 239464-6979141084, contact@katsoulas.eu","TIMES":"Δευτ. Τετ. 8.30 -14.30, Τρ. Πεμ. Παρ. 8.30 -14.00 & 17.30 - 20.30","CHANGING ROOM":"ναι","POSTCODE":"22100","LONGITUDE":"37°30'46.2\"N","LATITUDE":"22°22'16.7\"E"},{"":"","ΕΠΩΝΥΜΙΑ ΚΑΤΑΣΤΗΜΑΤΟΣ":"","NAME":"MΑΡΑΝΤΟΣ ΝΙΚΟΛΑΟΣ","Address":"Φαρμακείο, Αριστομένους 79, Καλαμάτα, 27210 84925","TIMES":"Δευτ. Τετ. 8.00 -14.00, Τρ. Πεμ. Παρ. 8.00 -14.00 & 17.00 - 21.00","CHANGING ROOM":"όχι","POSTCODE":"","LONGITUDE":"37°02'07.9\"N","LATITUDE":"22°06'39.2\"E"},{"":"","ΕΠΩΝΥΜΙΑ ΚΑΤΑΣΤΗΜΑΤΟΣ":"","NAME":"ΚΟΣΜΗΜΑΤΟΠΩΛΕΙΟ","Address":"Κοσμηματοπωλείο, Αριστομένους 22, Καλαμάτα, 27210 23178","TIMES":"Δευτ. Τετ. 9.00 -14.00, Τρ. Πεμ. Παρ. 9.00 -14.00 & 17.30 - 20.30","CHANGING ROOM":"όχι","POSTCODE":"","LONGITUDE":"37°02'29.9\"N","LATITUDE":"22°06'42.5\"E"},{"":"","ΕΠΩΝΥΜΙΑ ΚΑΤΑΣΤΗΜΑΤΟΣ":"","NAME":"ΝΙΚΗ ΝΙΚΑ","Address":"Ένδυση - γυναικεία, Πλατεία 23ης Μαρτίου 13, Καλαμάτα, 6980776719, fashionnikikal@gmail.com","TIMES":"Δευτ. Τετ. 8.30 -14.30, Τρ. Πεμ. Παρ. 8.30 -14.00 & 17.30 - 20.30","CHANGING ROOM":"όχι","POSTCODE":"","LONGITUDE":"37°02'34.4\"N","LATITUDE":"22°06'47.7\"E"},{"":"","ΕΠΩΝΥΜΙΑ ΚΑΤΑΣΤΗΜΑΤΟΣ":"","NAME":"ΠΗΤΕΡ ΠΑΝ","Address":"Ένδυση - παιδικά, Αναγνωσταρά και Νικηταρά, Καλαμάτα, 27210 93918","TIMES":"","CHANGING ROOM":"","POSTCODE":"","LONGITUDE":"37°02'24.7\"N","LATITUDE":"22°06'44.5\"E"},{"":"","ΕΠΩΝΥΜΙΑ ΚΑΤΑΣΤΗΜΑΤΟΣ":"","NAME":"ΒΙΒΛΙΟΧΑΡΤΟΠΩΛΕΙΟ ΚΟΝΤΑΡΓΥΡΗ Ο.Ε.Ε.","Address":"Βιβλιοπωλείο, Πλατεία 23ης Μαρτίου 8, Καλαμάτα, 27210 84787","TIMES":"ΔΕΥΤΕΡΑ -ΣΑΒΒΑΤΟ ΠΡΩΙ 8.00-2.30/ΔΕΥΤΕΡΑ-ΠΑΡΑΣΚΕΥΗ ΑΠΟΓΕΥΜΑ 17.00-21.00,ΚΥΡΙΑΚΗ ΠΡΩΙ 8.00-14.00","CHANGING ROOM":"ΌΧΙ","POSTCODE":"","LONGITUDE":"37°02'34.3\"N","LATITUDE":"22°06'47.6\"E"},{"":"","ΕΠΩΝΥΜΙΑ ΚΑΤΑΣΤΗΜΑΤΟΣ":"","NAME":"ΑΦΟΙ ΜΑΝΕΣΙΩΤΗ ΠΑΙΧΝΙΔΙΑ ΨΙΛΙΚΑ ΖΑΧΑΡΩΔΗ","Address":"Ψιλικά - παιχνίδια, Πλατεία 23ης Μαρτίου 12, Καλαμάτα, 27210 26346/20289","TIMES":"9.00-14.00 ΚΑΙ 18.00-21.00 ΔΕΥΤΕΡΑ,ΤΕΤΑΡΤΗ,ΣΑΒΒΑΤΟ ΠΡΩΙ","CHANGING ROOM":"ΌΧΙ","POSTCODE":"","LONGITUDE":"37°02'34.3\"N","LATITUDE":"22°06'47.6\"E"},{"":"","ΕΠΩΝΥΜΙΑ ΚΑΤΑΣΤΗΜΑΤΟΣ":"","NAME":"BLOOM","Address":"Ένδυση, Πλατεία Καίσαρη 1, Καλαμάτα, 27210 29796, litsavogue@gmail.com","TIMES":"","CHANGING ROOM":"","POSTCODE":"","LONGITUDE":"37°02'21.1\"N","LATITUDE":"22°06'41.3\"E"},{"":"","ΕΠΩΝΥΜΙΑ ΚΑΤΑΣΤΗΜΑΤΟΣ":"","NAME":"ROADSIDE","Address":"Βιβλιοπωλείο ταξιδιωτικό, Χάνδακος 29, Ηράκλειο Κρήτης, 2810 344610, chandakos@mystis.gr","TIMES":"ΔΕΥΤΕΡΑ,ΤΕΤΑΡΤΗ,ΣΑΒΒΑΤΟ 9.00-2.30 ΤΡΙΤΗ,ΠΕΜΠΤΗ ΠΑΡΑΣΚΕΥΗ 9.00-2.00 ΚΑΙ 5.30-9.00","CHANGING ROOM":"ΌΧΙ","POSTCODE":"71202","LONGITUDE":"35°20'23.4\"N","LATITUDE":"25°07'54.9\"E"},{"":"","ΕΠΩΝΥΜΙΑ ΚΑΤΑΣΤΗΜΑΤΟΣ":"","NAME":"ΑΝΑΣΤΑΣΙΟΣ Α. ΤΑΚΗΣ","Address":"Φαρμακείο, Αριστομένους 37, Καλαμάτα, 27210 24222, tasostakis@hotmail.com","TIMES":"ΔΕΥΤΕΡΑ,ΤΡΙΤΗ,ΠΕΜΠΤΗ,ΠΑΡΑΣΚΕΥΗ 8.00-2.30 ΚΑΙ 5.00-9.00 ΤΕΤΑΡΤΥΗ 8.00-2.30 ΣΑΒΒΑΤΟ 10.00-2.30","CHANGING ROOM":"ΌΧΙ","POSTCODE":"24132","LONGITUDE":"37°02'22.1\"N","LATITUDE":"22°06'41.3\"E"},{"":"","ΕΠΩΝΥΜΙΑ ΚΑΤΑΣΤΗΜΑΤΟΣ":"","NAME":"ΧΡΗΣΤΟΣ ΤΣΑΜΗΣ & ΣΙΑ Ο.Ε.","Address":"Οπτικά, Αριστομένους 37, Καλαμάτα, 27210 25824","TIMES":"ΚΑΘΗΜΕΡΙΝΑ ΚΑΙ ΣΑΒΒΑΤΟ 8.30-2.00 ΤΡΙΤΗ,ΠΕΜΠΤΗ,ΠΑΡΑΣΚΕΥΗ 5.30-8.30","CHANGING ROOM":"ΌΧΙ","POSTCODE":"","LONGITUDE":"37°02'22.2\"N","LATITUDE":"22°06'41.3\"E"},{"":"","ΕΠΩΝΥΜΙΑ ΚΑΤΑΣΤΗΜΑΤΟΣ":"","NAME":"OPTICENTER-ΝΙΚΟΛΟΠΟΥΛΟΣ","Address":"Οπτικά, Αριστομένους 37, Καλαμάτα, 27210 86736","TIMES":"ΚΑΘΗΜΕΡΙΝΑ 9.00-2.00 ΤΡΙΤΗ,ΠΕΜΠΤΗ,ΠΑΡΑΣΚΕΥΗ 5.30-8.30 ΣΑΒΒΑΤΟ 9.00-2.30","CHANGING ROOM":"ΌΧΙ","POSTCODE":"","LONGITUDE":"37°02'22.2\"N","LATITUDE":"22°06'41.3\"E"},{"":"","ΕΠΩΝΥΜΙΑ ΚΑΤΑΣΤΗΜΑΤΟΣ":"","NAME":"ΕΛ.ΑΛΕΞΙΔΟΥ-ΑΙΚ.ΦΥΛΑΚΤΙΔΟΥ Ο.Ε.","Address":"Φαρμακείο, Αριστομένους και Παυσανίου 2, Καλαμάτα, 27210 22223, alexidoupharmacy@hotmail.gr","TIMES":"ΚΑΘΗΜΕΡΙΝΑ 8.00-2.00 ΚΑΙ 5.00-9.00 ΣΑΒΒΑΤΟ 8.00-2.00","CHANGING ROOM":"ΌΧΙ","POSTCODE":"24133","LONGITUDE":"37°02'24.0\"N","LATITUDE":"22°06'41.9\"E"},{"":"","ΕΠΩΝΥΜΙΑ ΚΑΤΑΣΤΗΜΑΤΟΣ":"","NAME":"ANASTASIOS COIFFURE","Address":"Κομμωτήριο, Χρ. Κουμάντου 10, Καλαμάτα, 27210 62819","TIMES":"ΔΕΥΤΕΡΑ,ΤΕΤΑΡΤΗ 9.00-5.00 ΤΡΙΤΗ,ΠΕΜΠΤΗ,ΠΑΡΑΣΚΕΥΗ 9.00-9.00 ΣΑΒΒΑΤΟ 8.00-5.00","CHANGING ROOM":"ΌΧΙ","POSTCODE":"","LONGITUDE":"37°02'27.3\"N","LATITUDE":"22°06'43.2\"E"},{"":"","ΕΠΩΝΥΜΙΑ ΚΑΤΑΣΤΗΜΑΤΟΣ":"","NAME":"BILLY","Address":"Ένδυση - παιδικά, Αριστομένους 5, Καλαμάτα, 27210 88728","TIMES":"ΚΑΘΗΜΕΡΙΝΑ ΚΑΙ ΣΑΒ. 8.30-2.00 ΤΡΙΤΗ,ΠΕΜΠΤΗ,ΠΑΡΑΣΚΕΥΗ 5.30-8.30","CHANGING ROOM":"ΌΧΙ","POSTCODE":"","LONGITUDE":"37°02'32.6\"N","LATITUDE":"22°06'43.5\"E"},{"":"","ΕΠΩΝΥΜΙΑ ΚΑΤΑΣΤΗΜΑΤΟΣ":"","NAME":"KOPI LUWAK","Address":"Καφέ, Ιατροπούλου 11, Καλαμάτα, 27210 21856","TIMES":"κάθε μέρα 8.00-1.00","CHANGING ROOM":"όχι","POSTCODE":"","LONGITUDE":"37°02'16.4\"N","LATITUDE":"22°06'36.9\"E"},{"":"","ΕΠΩΝΥΜΙΑ ΚΑΤΑΣΤΗΜΑΤΟΣ":"","NAME":"UNDERCOLORS OF BENETTON","Address":"Ένδυση - unisex, Καίσαρη 1, Καλαμάτα, 27210 88161, koumolga@otenet.gr","TIMES":"ΚΑΘΗΜΕΡΙΝΑ 9.30-2.00 ΤΡΙΤΗ,ΠΕΜΠΤΗ,ΠΑΡΑΣΚΕΥΗ 6.00-21.00","CHANGING ROOM":"όχι","POSTCODE":"","LONGITUDE":"37°02'21.1\"N","LATITUDE":"22°06'41.3\"E"},{"":"","ΕΠΩΝΥΜΙΑ ΚΑΤΑΣΤΗΜΑΤΟΣ":"","NAME":"ΦΡΟΝΤΙΔΑ","Address":"Είδη βρεφανάπτυξης - Ορθοπεδικά, Υπατίας 62, Θεσσαλονίκη - Άνω Τούμπα, 23140 26072-6942461831, frontidashop@gmail.com","TIMES":"","CHANGING ROOM":"","POSTCODE":"54351","LONGITUDE":"40°36'55.7\"N","LATITUDE":"22°58'35.3\"E"},{"":"","ΕΠΩΝΥΜΙΑ ΚΑΤΑΣΤΗΜΑΤΟΣ":"","NAME":"ΣΥΣΤΕΓΑΣΜΕΝΑ ΦΑΡΜΑΚΕΙΑ ΧΑΧΑΛΗ-ΚΑΤΣΙΝΑ","Address":"Φαρμακείο, Κορίνθου 309 και Βότση, Πάτρα, 2610 223567","TIMES":"Δευτέρα & Τετάρτη: 8.00-14.00 / Τρίτη-Πέμπτη-Παρασκευή: 8.00-14.00 & 17.00-21.00","CHANGING ROOM":"","POSTCODE":"26223","LONGITUDE":"38°14'40.7\"N","LATITUDE":"21°44'01.4\"E"},{"":"","ΕΠΩΝΥΜΙΑ ΚΑΤΑΣΤΗΜΑΤΟΣ":"","NAME":"ΤΣΙΤΣΙΡΙΚΗ ΑΛΕΞΑΝΔΡΑ","Address":"Χειρουργός Οδοντίατρος, Τζαβέλλα 74, Ναύπακτος, 26340 21203","TIMES":"Δευτέρα-Τρίτη-Πέμπτη: 10.00-17.00 & Τετάρτη: 16.00-21.00","CHANGING ROOM":"","POSTCODE":"30300","LONGITUDE":"38°23'40.7\"N","LATITUDE":"21°49'58.0\"E"},{"":"","ΕΠΩΝΥΜΙΑ ΚΑΤΑΣΤΗΜΑΤΟΣ":"","NAME":"ΦΑΡΜΑΚΕΙΟ ΤΣΙΜΕΝΙΔΗ ΚΑΛΛΙΟΠΗ","Address":"Φαρμακείο, Αρέθα 113, Πάτρα, 2610 421122","TIMES":"Δευτέρα & Τετάρτη: 8.00-14.00 / Τρίτη-Πέμπτη-Παρασκευή: 8.00-14.00 & 17.00-21.00","CHANGING ROOM":"","POSTCODE":"26443","LONGITUDE":"38°15'55.1\"N","LATITUDE":"21°45'38.5\"E"},{"":"","ΕΠΩΝΥΜΙΑ ΚΑΤΑΣΤΗΜΑΤΟΣ":"","NAME":"ΛΟΥΛΟΥΔΟΤΟΠΟΣ","Address":"Ανθοπωλείο, Βασ. Σοφίας 9, Άργος, 27510 61667","TIMES":"","CHANGING ROOM":"","POSTCODE":"21200","LONGITUDE":"37°38'06.4\"N","LATITUDE":"22°43'45.5\"E"},{"":"","ΕΠΩΝΥΜΙΑ ΚΑΤΑΣΤΗΜΑΤΟΣ":"","NAME":"STUDIO ΛΟΥΛΟΥΔΙΩΝ","Address":"Ανθοπωλείο, Πλατεία Δερβενακίων 21, Άργος, 27510 24223","TIMES":"","CHANGING ROOM":"","POSTCODE":"21200","LONGITUDE":"","LATITUDE":""},{"":"","ΕΠΩΝΥΜΙΑ ΚΑΤΑΣΤΗΜΑΤΟΣ":"","NAME":"ART & FLOWER","Address":"Ανθοπωλείο, Δαναού 30, Άργος, 27510 63403","TIMES":"","CHANGING ROOM":"","POSTCODE":"21200","LONGITUDE":"37°37'54.6\"N","LATITUDE":"22°43'36.6\"E"},{"":"","ΕΠΩΝΥΜΙΑ ΚΑΤΑΣΤΗΜΑΤΟΣ":"","NAME":"QUEENS WEDDING","Address":"Οίκος νυφικών, Φείδωνος 21, Άργος, 27510 24190","TIMES":"","CHANGING ROOM":"","POSTCODE":"21200","LONGITUDE":"37°37'57.4\"N","LATITUDE":"22°43'28.7\"E"},{"":"","ΕΠΩΝΥΜΙΑ ΚΑΤΑΣΤΗΜΑΤΟΣ":"","NAME":"SENSIA","Address":"Ινστιτούτο αισθητικής, Καποδιστρίου 28, Άργος, 27510 20050","TIMES":"","CHANGING ROOM":"","POSTCODE":"21200","LONGITUDE":"37°37'58.6\"N","LATITUDE":"22°43'44.3\"E"},{"":"","ΕΠΩΝΥΜΙΑ ΚΑΤΑΣΤΗΜΑΤΟΣ":"","NAME":"LILLIPUT","Address":"Ένδυση - παιδικά, Νικηταρά 47, Άργος, 27510 25955","TIMES":"","CHANGING ROOM":"","POSTCODE":"21200","LONGITUDE":"37°38'01.5\"N","LATITUDE":"22°43'49.4\"E"},{"":"","ΕΠΩΝΥΜΙΑ ΚΑΤΑΣΤΗΜΑΤΟΣ":"","NAME":"MAYORAL","Address":"Ένδυση - παιδικά, Κορίνθου 28, Άργος, 6972559300","TIMES":"","CHANGING ROOM":"","POSTCODE":"21200","LONGITUDE":"37°38'10.8\"N","LATITUDE":"22°43'43.4\"E"},{"":"","ΕΠΩΝΥΜΙΑ ΚΑΤΑΣΤΗΜΑΤΟΣ":"","NAME":"ΜΟΤΟ CENTER SKLIAMIS","Address":"Εμπόριο μοτοσυκλετών-συνεργείο, Παπαρρηγόπουλου 6, Άργος, 27510 68680","TIMES":"","CHANGING ROOM":"","POSTCODE":"21200","LONGITUDE":"37°38'09.3\"N","LATITUDE":"22°43'45.2\"E"},{"":"","ΕΠΩΝΥΜΙΑ ΚΑΤΑΣΤΗΜΑΤΟΣ":"","NAME":"ΦΑΡΜΑΚΕΙΟ ΛΕΟΝΑΡΔΟΣ ΓΕΩΡΓΙΟΣ","Address":"Φαρμακείο, Βασ. Σοφίας 19, Άργος, 27510 67445","TIMES":"","CHANGING ROOM":"","POSTCODE":"21200","LONGITUDE":"37°38'05.9\"N","LATITUDE":"22°43'47.0\"E"},{"":"","ΕΠΩΝΥΜΙΑ ΚΑΤΑΣΤΗΜΑΤΟΣ":"","NAME":"ΤΟ ΤΖΙΝΙ","Address":"Θελήματα, Τσώκρη 76, Άργος, 27510 61961","TIMES":"","CHANGING ROOM":"","POSTCODE":"21200","LONGITUDE":"37°38'13.6\"N","LATITUDE":"22°43'28.2\"E"},{"":"","ΕΠΩΝΥΜΙΑ ΚΑΤΑΣΤΗΜΑΤΟΣ":"","NAME":"ΤΟ ΜΑΝΑΒΙΚΟ ΤΗΣ ΝΙΚΟΛΕΤΑΣ","Address":"Μανάβικο, Κορίνθου 141, Άργος, 27510 22037","TIMES":"","CHANGING ROOM":"","POSTCODE":"21200","LONGITUDE":"37°38'31.0\"N","LATITUDE":"22°43'45.4\"E"},{"":"","ΕΠΩΝΥΜΙΑ ΚΑΤΑΣΤΗΜΑΤΟΣ":"","NAME":"ΒΑΣΙΛΑΚΗ ΙΩΑΝΝΑ","Address":"Μαία, Μικράς Ασίας & Καστελορίζου 14, Χαλάνδρι, 6936801609","TIMES":"","CHANGING ROOM":"","POSTCODE":"15233","LONGITUDE":"38°01'36.9\"N","LATITUDE":"23°47'42.7\"E"},{"":"","ΕΠΩΝΥΜΙΑ ΚΑΤΑΣΤΗΜΑΤΟΣ":"","NAME":"ECO TECK","Address":"Εταιρεία υψηλής τεχνολογίας, Λεωφ. Ασκληπιού 61, Ναύπλιο, 27520 25889","TIMES":"","CHANGING ROOM":"","POSTCODE":"21100","LONGITUDE":"37°34'12.5\"N","LATITUDE":"22°48'48.7\"E"},{"":"","ΕΠΩΝΥΜΙΑ ΚΑΤΑΣΤΗΜΑΤΟΣ":"","NAME":"ΠΑΡΑΣΚΕΥΟΠΟΥΛΟΣ ΧΑΡΑΛΑΜΠΟΣ","Address":"Χρυσοχοείο, Βασ. Κωνσταντίνου 21, Ναύπλιο, 27520 25381","TIMES":"","CHANGING ROOM":"","POSTCODE":"21100","LONGITUDE":"37°33'56.1\"N","LATITUDE":"22°48'16.6\"E"},{"":"","ΕΠΩΝΥΜΙΑ ΚΑΤΑΣΤΗΜΑΤΟΣ":"","NAME":"CHRISTINE LADIES FASHION","Address":"Ένδυση - γυναικεία, Π. Καίσαρη 5, Καλαμάτα, 6972863544/3","TIMES":"","CHANGING ROOM":"","POSTCODE":"24100","LONGITUDE":"37°02'20.7\"N","LATITUDE":"22°06'44.1\"E"},{"":"","ΕΠΩΝΥΜΙΑ ΚΑΤΑΣΤΗΜΑΤΟΣ":"","NAME":"ΦΑΡΜΑΚΕΙΟ ΦΙΛΙΠΠΟΠΟΥΛΟΥ ΘΕΟΔΩΡΑ","Address":"Φαρμακείο, Π. Καίσαρη 8, Καλαμάτα, 27210 93760-6979044143, dorafili@hotmail.com","TIMES":"","CHANGING ROOM":"","POSTCODE":"24100","LONGITUDE":"37°02'20.2\"N","LATITUDE":"22°06'44.5\"E"},{"":"","ΕΠΩΝΥΜΙΑ ΚΑΤΑΣΤΗΜΑΤΟΣ":"","NAME":"ΚΛΩΣΤΗ - ΒΕΛΟΝΑ","Address":"Π. Καίσαρη 8, Καλαμάτα, 2721 779238","TIMES":"","CHANGING ROOM":"","POSTCODE":"24100","LONGITUDE":"37°02'20.2\"N","LATITUDE":"22°06'44.5\"E"},{"":"","ΕΠΩΝΥΜΙΑ ΚΑΤΑΣΤΗΜΑΤΟΣ":"","NAME":"MEDIA STROM","Address":"Στρώματα, Λεωφ. Κνωσσού 256, Ηράκλειο Κρήτης, 2810 236500-6977680932, iraklio@mediastrom.gr","TIMES":"","CHANGING ROOM":"","POSTCODE":"71409","LONGITUDE":"35°18'40.9\"N","LATITUDE":"25°08'58.0\"E"},{"":"","ΕΠΩΝΥΜΙΑ ΚΑΤΑΣΤΗΜΑΤΟΣ":"","NAME":"MEDIA STROM","Address":"Στρώματα, Αβέρωφ 1 - Πλατεία Ελευθερίας, Ηράκλειο Κρήτης, 2810 236500, iraklio@mediastrom.gr","TIMES":"","CHANGING ROOM":"","POSTCODE":"71201","LONGITUDE":"35°20'13.1\"N","LATITUDE":"25°08'08.9\"E"},{"":"","ΕΠΩΝΥΜΙΑ ΚΑΤΑΣΤΗΜΑΤΟΣ":"","NAME":"MATHERCARE","Address":"Είδη βρεφανάπτυξης, Μουρέλου 5 & Μιχελιδάκη, Ηράκλειο Κρήτης, 2810 282136-6984648321, iraklio@mothercare.gr","TIMES":"","CHANGING ROOM":"","POSTCODE":"71202","LONGITUDE":"35°20'20.3\"N","LATITUDE":"25°07'51.1\"E"},{"":"","ΕΠΩΝΥΜΙΑ ΚΑΤΑΣΤΗΜΑΤΟΣ":"","NAME":"OVIESSE (TALOS PLAZA)","Address":"Ένδυση, Μίνωος 2 & Βενιζέλου Σοφοκλή, Ηράκλειο Κρήτης, 2810 252344","TIMES":"","CHANGING ROOM":"","POSTCODE":"71303","LONGITUDE":"35°20'26.8\"N","LATITUDE":"25°07'13.3\"E"},{"":"","ΕΠΩΝΥΜΙΑ ΚΑΤΑΣΤΗΜΑΤΟΣ":"","NAME":"PRENATAL","Address":"Είδη βρεφανάπτυξης, Δικαιοσύνης 51, Ηράκλειο Κρήτης, 2810 283531-6978004012","TIMES":"","CHANGING ROOM":"","POSTCODE":"71202","LONGITUDE":"35°20'17.7\"N","LATITUDE":"25°08'05.2\"E"},{"":"","ΕΠΩΝΥΜΙΑ ΚΑΤΑΣΤΗΜΑΤΟΣ":"","NAME":"SAVE EVA","Address":"Ένδυση - υπόδηση, Ζωγράφου 5, Ηράκλειο Κρήτης, 2810 242460, seveeva.gr@gmail.com","TIMES":"","CHANGING ROOM":"","POSTCODE":"71201","LONGITUDE":"35°20'14.2\"N","LATITUDE":"25°08'06.4\"E"},{"":"","ΕΠΩΝΥΜΙΑ ΚΑΤΑΣΤΗΜΑΤΟΣ":"","NAME":"THIROS","Address":"Δερμάτινα είδη, Ζωγράφου 5, Ηράκλειο Κρήτης, agapikaloudi@gmail.com","TIMES":"","CHANGING ROOM":"","POSTCODE":"71201","LONGITUDE":"35°20'14.2\"N","LATITUDE":"25°08'06.4\"E"},{"":"","ΕΠΩΝΥΜΙΑ ΚΑΤΑΣΤΗΜΑΤΟΣ":"","NAME":"VOTRE","Address":"Beauty Care, Ίδης 25, Ηράκλειο Κρήτης, 2810 346041-6976359700, nast@vorte.gr","TIMES":"","CHANGING ROOM":"","POSTCODE":"71201","LONGITUDE":"35°20'19.7\"N","LATITUDE":"25°07'56.8\"E"},{"":"","ΕΠΩΝΥΜΙΑ ΚΑΤΑΣΤΗΜΑΤΟΣ":"","NAME":"YAMAMAY","Address":"Ένδυση, Δαιδάλου 3, Ηράκλειο Κρήτης, vapostolakis@gmail.com","TIMES":"","CHANGING ROOM":"","POSTCODE":"71201","LONGITUDE":"35°20'19.7\"N","LATITUDE":"25°08'03.0\"E"},{"":"","ΕΠΩΝΥΜΙΑ ΚΑΤΑΣΤΗΜΑΤΟΣ":"","NAME":"ΥΑΜΑΜΑΥ (TALOS PLAZA)","Address":"Ένδυση, Ηράκλειο Κρήτης, vapostolakis@gmail.com","TIMES":"","CHANGING ROOM":"","POSTCODE":"71303","LONGITUDE":"35°20'25.4\"N","LATITUDE":"25°07'10.3\"E"},{"":"","ΕΠΩΝΥΜΙΑ ΚΑΤΑΣΤΗΜΑΤΟΣ":"","NAME":"ΑΚΡΑΤΟΝ","Address":"Βιολογικά προϊόντα, Λεωφ. Κνωσσού 225, Ηράκλειο Κρήτης, 2810 360043-6973694526, irinisfakianaki@gmail.com","TIMES":"","CHANGING ROOM":"","POSTCODE":"71409","LONGITUDE":"35°18'39.7\"N","LATITUDE":"25°08'59.8\"E"},{"":"","ΕΠΩΝΥΜΙΑ ΚΑΤΑΣΤΗΜΑΤΟΣ":"","NAME":"ΑΝΑΓΝΩΣΤΗΡΙΟ ΒΙΚΕΛΑΙΑΣ ΒΙΒΛΙΟΘΗΚΗΣ-ΔΗΜΟΣ ΗΡΑΚΛΕΙΟΥ","Address":"Αναγνωστήριο, Χορτατσών & Κυδωνίας, Ηράκλειο Κρήτης, 2813 409750, katalog@heraklion.gr","TIMES":"","CHANGING ROOM":"","POSTCODE":"71202","LONGITUDE":"35°20'24.1\"N","LATITUDE":"25°07'55.3\"E"},{"":"","ΕΠΩΝΥΜΙΑ ΚΑΤΑΣΤΗΜΑΤΟΣ":"","NAME":"ΒΕΝΕΡΗΣ","Address":"Φούρνος-καφέ, Γιαννιτσών 12 & Σμύρνης, Ηράκλειο Κρήτης, 6936771580, nveneris@gmail.com","TIMES":"","CHANGING ROOM":"","POSTCODE":"71201","LONGITUDE":"35°20'13.2\"N","LATITUDE":"25°08'03.7\"E"},{"":"","ΕΠΩΝΥΜΙΑ ΚΑΤΑΣΤΗΜΑΤΟΣ":"","NAME":"ΓΕΡΜΑΝΟΣ (ΒΕΡΙΓΟΣ/ΓΡΗΓΟΡΑΚΗΣ Ο.Ε.)","Address":"Τηλεπικοινωνίες, Κνωσού 210, Ηράκλειο Κρήτης, 2810 325700-6989482268, kgm_knossou@germanos.gr","TIMES":"","CHANGING ROOM":"","POSTCODE":"71409","LONGITUDE":"35°18'51.7\"N","LATITUDE":"25°08'53.2\"E"},{"":"","ΕΠΩΝΥΜΙΑ ΚΑΤΑΣΤΗΜΑΤΟΣ":"","NAME":"ΒΙΒΛΙΟΠΩΛΕΙΟ ΓΕΩΡΓΑΝΤΩΝΑΚΗ","Address":"Βιβλιοπωλείο, 62 Μαρτύρων 46, Ηράκλειο Κρήτης, 2810 301919, georgantonaki_a@yahoo.gr","TIMES":"","CHANGING ROOM":"","POSTCODE":"71303","LONGITUDE":"35°20'09.9\"N","LATITUDE":"25°07'15.0\"E"},{"":"","ΕΠΩΝΥΜΙΑ ΚΑΤΑΣΤΗΜΑΤΟΣ":"","NAME":"ΒΙΒΛΙΟΠΩΛΕΙΟ ΓΕΩΡΓΑΝΤΩΝΑΚΗ","Address":"Βιβλιοπωλείο, Καρτερού 48, Ηράκλειο Κρήτης, 2810 301919, georgantonaki_a@yahoo.gr","TIMES":"","CHANGING ROOM":"","POSTCODE":"71303","LONGITUDE":"35°20'14.4\"N","LATITUDE":"25°07'53.6\"E"},{"":"","ΕΠΩΝΥΜΙΑ ΚΑΤΑΣΤΗΜΑΤΟΣ":"","NAME":"ΔΑΙΔΑΛΟΣ","Address":"Κόσμημα-Γάμος-Βάπτιση, Χάνδακος 33 & Ευγενικού, Ηράκλειο Κρήτης, 2810 287047, daidalos@mail.com","TIMES":"","CHANGING ROOM":"","POSTCODE":"71202","LONGITUDE":"35°20'23.5\"N","LATITUDE":"25°07'54.5\"E"},{"":"","ΕΠΩΝΥΜΙΑ ΚΑΤΑΣΤΗΜΑΤΟΣ":"","NAME":"ΒΙΒΛΙΟΠΩΛΕΙΟ ΔΟΚΙΜΑΚΗΣ","Address":"Βιβλιοπωλείο, Καντανολέων 4, Ηράκλειο Κρήτης, 2810 288544-6944504655, info@bigbook.gr/elenbet@gmail.com","TIMES":"","CHANGING ROOM":"","POSTCODE":"71202","LONGITUDE":"35°20'22.7\"N","LATITUDE":"25°07'59.0\"E"},{"":"","ΕΠΩΝΥΜΙΑ ΚΑΤΑΣΤΗΜΑΤΟΣ":"","NAME":"ΔΟΡΚΑΣ","Address":"Υπόδηση, Κοραή 8, Ηράκλειο Κρήτης, 2810 346456, info@e-dorkas.gr","TIMES":"","CHANGING ROOM":"","POSTCODE":"71202","LONGITUDE":"35°20'20.4\"N","LATITUDE":"25°08'05.3\"E"},{"":"","ΕΠΩΝΥΜΙΑ ΚΑΤΑΣΤΗΜΑΤΟΣ":"","NAME":"ΦΑΡΜΑΚΕΙΟ ΔΟΥΛΟΥΦΑΚΗΣ","Address":"Φαρμακείο, Έβανς 52 - Πλατεία Κορνάρου, Ηράκλειο Κρήτης, 6976625004, lfot31@gmail.com/didoul611@gmail.com","TIMES":"","CHANGING ROOM":"","POSTCODE":"71201","LONGITUDE":"35°20'11.0\"N","LATITUDE":"25°08'02.9\"E"},{"":"","ΕΠΩΝΥΜΙΑ ΚΑΤΑΣΤΗΜΑΤΟΣ":"","NAME":"ΦΑΡΜΑΚΕΙΟ ΔΟΥΛΟΥΦΑΚΗΣ","Address":"Φαρμακείο, Ατλαντίδος 22, Ηράκλειο Κρήτης, 2810 317958-6977054599, lfot31@gmail.com/didoul611@gmail.com","TIMES":"","CHANGING ROOM":"","POSTCODE":"71305","LONGITUDE":"35°19'31.5\"N","LATITUDE":"25°07'38.0\"E"},{"":"","ΕΠΩΝΥΜΙΑ ΚΑΤΑΣΤΗΜΑΤΟΣ":"","NAME":"ΚΟΜΜΩΤΗΡΙΟ ΕΙΡΗΝΗ ΤΡΥΦΙΔΗ","Address":"Κομμωτήριο, Ηροδότου 158, Ν. Αλικαρνασσός, Ηράκλειο Κρήτης, trifidi@sch.gr","TIMES":"","CHANGING ROOM":"","POSTCODE":"71601","LONGITUDE":"35°20'13.9\"N","LATITUDE":"25°09'32.4\"E"},{"":"","ΕΠΩΝΥΜΙΑ ΚΑΤΑΣΤΗΜΑΤΟΣ":"","NAME":"ΕΥΗ ΜΑΡΚΑΚΗ","Address":"Αισθητική φροντίδα, Περδικάρη 2, Ηράκλειο Κρήτης, 2810 283713, info@markaki-beaute.gr","TIMES":"","CHANGING ROOM":"","POSTCODE":"71202","LONGITUDE":"35°20'19.9\"N","LATITUDE":"25°08'02.9\"E"},{"":"","ΕΠΩΝΥΜΙΑ ΚΑΤΑΣΤΗΜΑΤΟΣ":"","NAME":"ΦΑΡΜΑΚΕΙΟ ΚΑΒΟΥΣΑΝΟΣ","Address":"Φαρμακείο, Αγίου Μηνά 9, Ηράκλειο Κρήτης, 2810 220777, kavousanou.pharmacy@mail.com","TIMES":"","CHANGING ROOM":"","POSTCODE":"71201","LONGITUDE":"35°20'16.9\"N","LATITUDE":"25°07'47.5\"E"},{"":"","ΕΠΩΝΥΜΙΑ ΚΑΤΑΣΤΗΜΑΤΟΣ":"","NAME":"KΟΙΝΩΝΙΚΟΣ ΧΩΡΟΣ τ. ΙΔΡΥΜΑΤΩΝ ΚΑΛΟΚΑΙΡΙΝΟΥ","Address":"Κοινωνικός χώρος, Μονής Αγκαράθου 9 & Κοσμά Ζώτου, Ηράκλειο Κρήτης, 2810 226105, koinwnikos.xwros@gmail.com","TIMES":"","CHANGING ROOM":"","POSTCODE":"71202","LONGITUDE":"35°20'32.0\"N","LATITUDE":"25°08'01.2\"E"},{"":"","ΕΠΩΝΥΜΙΑ ΚΑΤΑΣΤΗΜΑΤΟΣ":"","NAME":"ΛΗΤΩ","Address":"Είδη βρεφανάπτυξης, Λεωφ. Κνωσσού 276 & Σαμαριάς, Ηράκλειο Κρήτης, 2811 103167-6936993622, irakleio@letoshop.gr","TIMES":"","CHANGING ROOM":"","POSTCODE":"71202","LONGITUDE":"35°18'36.7\"N","LATITUDE":"25°08'59.5\"E"},{"":"","ΕΠΩΝΥΜΙΑ ΚΑΤΑΣΤΗΜΑΤΟΣ":"","NAME":"ΦΑΡΜΑΚΕΙΟ ΛΥΔΑΚΗ ΟΛΓΑ","Address":"Φαρμακείο, Ίδης 8-10, Ηράκλειο Κρήτης, 2810 282204, farmakeio.lydaki@gmail.com","TIMES":"Δευτ. Τετ. 8.30-14.30 &Τρ. Πεμ. Παρ. 8.30 - 14.00 & 5.30 - 21.00","CHANGING ROOM":"καρέκλα θηλασμού","POSTCODE":"71201","LONGITUDE":"35°20'19.9\"N","LATITUDE":"25°07'57.5\"E"},{"":"","ΕΠΩΝΥΜΙΑ ΚΑΤΑΣΤΗΜΑΤΟΣ":"","NAME":"ΜΟΥΣΕΙΟ ΦΥΣΙΚΗΣ ΙΣΤΟΡΙΑΣ","Address":"Μουσείο, Λεωφ. Σοφοκλή Βενιζέλου, Ηράκλειο Κρήτης, 6944918758, mylonas@nhmc.uoc.gr","TIMES":"","CHANGING ROOM":"","POSTCODE":"71202","LONGITUDE":"35°20'31.2\"N","LATITUDE":"25°07'36.1\"E"},{"":"","ΕΠΩΝΥΜΙΑ ΚΑΤΑΣΤΗΜΑΤΟΣ":"","NAME":"ΜΠΙΣΚΟΤΟ","Address":"Καφέ, Χάνδακος 36Γ, Ηράκλειο Κρήτης, 2810 288977-6932410313, pixidaher@hotmail.com/stephanos.82@hotmail.com","TIMES":"","CHANGING ROOM":"","POSTCODE":"71202","LONGITUDE":"35°20'25.1\"N","LATITUDE":"25°07'51.8\"E"},{"":"","ΕΠΩΝΥΜΙΑ ΚΑΤΑΣΤΗΜΑΤΟΣ":"","NAME":"ΝΑΝΤΙΝ","Address":"Ένδυση - παιδικά, Μονής Οδηγήτριας 14, Ηράκλειο Κρήτης, 2810 284408-6973792575, nantinmp@gmail.com","TIMES":"","CHANGING ROOM":"","POSTCODE":"71201","LONGITUDE":"35°20'16.9\"N","LATITUDE":"25°07'55.4\"E"},{"":"","ΕΠΩΝΥΜΙΑ ΚΑΤΑΣΤΗΜΑΤΟΣ":"","NAME":"ΟΜΗΡΟΛΗΣ","Address":"Είδη βρεφανάπτυξης, Λεωφ. 62 Μαρτύρων 35, Ηράκλειο Κρήτης, 6942571487, omirolis@omirolis.gr","TIMES":"","CHANGING ROOM":"","POSTCODE":"71304","LONGITUDE":"35°20'09.6\"N","LATITUDE":"25°07'16.5\"E"},{"":"","ΕΠΩΝΥΜΙΑ ΚΑΤΑΣΤΗΜΑΤΟΣ":"","NAME":"ΦΑΡΜΑΚΕΙΟ ΟΡΓΑΝΟΥΔΑΚΗΣ","Address":"Φαρμακείο, Ίδης 32, Ηράκλειο Κρήτης, 2810 211451, info@orfanoudakis.com","TIMES":"","CHANGING ROOM":"","POSTCODE":"71202","LONGITUDE":"35°20'20.5\"N","LATITUDE":"25°07'56.6\"E"},{"":"","ΕΠΩΝΥΜΙΑ ΚΑΤΑΣΤΗΜΑΤΟΣ":"","NAME":"ΠΑΓΚΡΗΤΙΟ ΣΤΑΔΙΟ","Address":"Ηράκλειο Κρήτης, tsirakos@herakleion.gr","TIMES":"","CHANGING ROOM":"","POSTCODE":"71303","LONGITUDE":"35°20'11.5\"N","LATITUDE":"25°06'22.1\"E"},{"":"","ΕΠΩΝΥΜΙΑ ΚΑΤΑΣΤΗΜΑΤΟΣ":"","NAME":"ΠΕΝΤΟΒΟΛΑ","Address":"Είδη δώρων, Κατεχάκη 20, Ηράκλειο Κρήτης, 2810 342558-6978130011, pentovola@gmail.com","TIMES":"","CHANGING ROOM":"","POSTCODE":"71201","LONGITUDE":"35°20'14.3\"N","LATITUDE":"25°07'53.0\"E"},{"":"","ΕΠΩΝΥΜΙΑ ΚΑΤΑΣΤΗΜΑΤΟΣ":"","NAME":"ΠΕΡΒΟΛΑΡΑΚΗΣ","Address":"Ένδυση - αθλητικά, Λ. Καλοκαιρινού 55, Ηράκλειο Κρήτης, 2810 302675, pervolarakis@pervolarakis.gr","TIMES":"","CHANGING ROOM":"","POSTCODE":"71201","LONGITUDE":"35°20'19.0\"N","LATITUDE":"25°07'50.9\"E"},{"":"","ΕΠΩΝΥΜΙΑ ΚΑΤΑΣΤΗΜΑΤΟΣ":"","NAME":"ΣΒΟΥΡΑ","Address":"Παιδότοπος, Άγιος Ιωάννης Χωστός, Ηράκλειο Κρήτης, 2810 261700-6972120000, info@svoura.gr","TIMES":"","CHANGING ROOM":"","POSTCODE":"71410","LONGITUDE":"35°19'14.5\"N","LATITUDE":"25°06'50.3\"E"},{"":"","ΕΠΩΝΥΜΙΑ ΚΑΤΑΣΤΗΜΑΤΟΣ":"","NAME":"ΦΑΡΜΑΚΕΙΟ ΣΚΟΥΝΤΑΚΗΣ","Address":"Φαρμακείο, Αβέρωφ 3, Ηράκλειο Κρήτης, 2810 214242-6945997260, skountis@hotmail.com","TIMES":"","CHANGING ROOM":"","POSTCODE":"71201","LONGITUDE":"35°20'13.1\"N","LATITUDE":"25°08'08.9\"E"},{"":"","ΕΠΩΝΥΜΙΑ ΚΑΤΑΣΤΗΜΑΤΟΣ":"","NAME":"ΤΕΧΝΗ","Address":"Είδη βάπτισης, Εθνάρχου Μακαρίου 12, Ηράκλειο Κρήτης, 2810 330680, info@texnh.gr","TIMES":"","CHANGING ROOM":"","POSTCODE":"71202","LONGITUDE":"","LATITUDE":""},{"":"","ΕΠΩΝΥΜΙΑ ΚΑΤΑΣΤΗΜΑΤΟΣ":"","NAME":"ΦΑΡΜΑΚΕΙΟ ΤΖΩΡΑΚΟΛΕΥΘΕΡΑΚΗΣ","Address":"Φαρμακείο, Μιχελιδάκη 2, Ηράκλειο Κρήτης, 2810 283063-6972315175, tzorakol@hotmail.com","TIMES":"","CHANGING ROOM":"","POSTCODE":"71202","LONGITUDE":"35°20'20.8\"N","LATITUDE":"25°07'54.6\"E"},{"":"","ΕΠΩΝΥΜΙΑ ΚΑΤΑΣΤΗΜΑΤΟΣ":"","NAME":"ΤΣΑΒΟΛΑΚΗ ΜΑΡΙΑ","Address":"Κεντήματα, Μουρέλου 3, Ηράκλειο Κρήτης, 2810 287029","TIMES":"","CHANGING ROOM":"","POSTCODE":"71202","LONGITUDE":"35°20'20.0\"N","LATITUDE":"25°07'51.5\"E"},{"":"","ΕΠΩΝΥΜΙΑ ΚΑΤΑΣΤΗΜΑΤΟΣ":"","NAME":"ΥΓΕΙΟΝΟΜΙΚΗ ΠΕΡΙΦΕΡΕΙΑ ΚΡΗΤΗΣ","Address":"Σμύρνης 26, Ηράκλειο Κρήτης, 6937270200","TIMES":"","CHANGING ROOM":"","POSTCODE":"71201","LONGITUDE":"35°20'12.3\"N","LATITUDE":"25°08'04.4\"E"},{"":"","ΕΠΩΝΥΜΙΑ ΚΑΤΑΣΤΗΜΑΤΟΣ":"","NAME":"SUPER MARKET ΧΑΛΚΙΑΔΑΚΗΣ","Address":"Λεβήνου & Θερίσσου, 6958471158, info@xalkiadakis.gr","TIMES":"","CHANGING ROOM":"","POSTCODE":"","LONGITUDE":"35°19'44.0\"N","LATITUDE":"25°07'08.0\"E"},{"":"","ΕΠΩΝΥΜΙΑ ΚΑΤΑΣΤΗΜΑΤΟΣ":"","NAME":"ΧΟΡΟΚΙΝΗΣΗ","Address":"Σχολή χορού, Λασηθίου 10, Ηράκλειο Κρήτης, 2810 282508, xorokinisi@mail.gr","TIMES":"","CHANGING ROOM":"","POSTCODE":"71201","LONGITUDE":"35°20'08.2\"N","LATITUDE":"25°07'58.1\"E"},{"":"","ΕΠΩΝΥΜΙΑ ΚΑΤΑΣΤΗΜΑΤΟΣ":"","NAME":"1ος ΚΥΝΗΓΗΤΙΚΟΣ ΣΥΛΛΟΓΟΣ ΗΡΑΚΛΕΙΟΥ","Address":"Οδός 1878 35, Ηράκλειο Κρήτης, 2810 288272","TIMES":"","CHANGING ROOM":"","POSTCODE":"71202","LONGITUDE":"35°20'25.4\"N","LATITUDE":"25°07'49.9\"E"},{"":"","ΕΠΩΝΥΜΙΑ ΚΑΤΑΣΤΗΜΑΤΟΣ":"","NAME":"ΜΑΥΡΟΥΔΗΣ ΜΗΝΑΣ","Address":"Παιδίατρος, Μονής Οδηγήτριας 14, Ηράκλειο Κρήτης, 2810 243400-6944528553, minasmavroudis@hotmail.com","TIMES":"","CHANGING ROOM":"","POSTCODE":"71201","LONGITUDE":"35°20'17.2\"N","LATITUDE":"25°07'54.6\"E"},{"":"","ΕΠΩΝΥΜΙΑ ΚΑΤΑΣΤΗΜΑΤΟΣ":"","NAME":"ΣΗΜΑΝΤΗΡΑΚΗ ΜΑΡΙΑ","Address":"Μικροβιολόγος/Βιοπαθολόγος, Ζωγράφου 11, Ηράκλειο Κρήτης, 2810 246949-6945377577, simantiraki.maria@gmail.com","TIMES":"","CHANGING ROOM":"","POSTCODE":"71201","LONGITUDE":"35°20'13.1\"N","LATITUDE":"25°08'06.9\"E"},{"":"","ΕΠΩΝΥΜΙΑ ΚΑΤΑΣΤΗΜΑΤΟΣ":"","NAME":"ΜΑΖΑΡΑΚΗ ΜΑΡΑ","Address":"Μαιευτήρας/Χειρουργός Γυναικολόγος, Πλατεία Κορνάρου 31 (Στοά Γιαλεράκη), Ηράκλειο Κρήτης, 2811 103358-6932703606, info@marazakimd.gr","TIMES":"","CHANGING ROOM":"","POSTCODE":"71201","LONGITUDE":"35°20'11.3\"N","LATITUDE":"25°08'00.9\"E"},{"":"","ΕΠΩΝΥΜΙΑ ΚΑΤΑΣΤΗΜΑΤΟΣ":"","NAME":"ΠΟΛΥΓΡΑΦΟΣ","Address":"Βιβλιοπωλείο, Χάνδακος 8, Ηράκλειο Κρήτης, 2810 333630, info@poligrafos.gr/stephanos.82@mail.com","TIMES":"","CHANGING ROOM":"","POSTCODE":"71202","LONGITUDE":"35°20'22.5\"N","LATITUDE":"25°07'56.2\"E"},{"":"","ΕΠΩΝΥΜΙΑ ΚΑΤΑΣΤΗΜΑΤΟΣ":"","NAME":"ΠΑΠΑΔΗΜΗΤΡΑΚΗΣ ΑΝΤΩΝΗΣ","Address":"Φυσιοθεραπευτής, Γερωνυμάκη 8, Ηράκλειο Κρήτης, 2810 229910-6993266253, info@physis-online.gr","TIMES":"","CHANGING ROOM":"","POSTCODE":"71306","LONGITUDE":"35°20'05.5\"N","LATITUDE":"25°08'21.8\"E"},{"":"","ΕΠΩΝΥΜΙΑ ΚΑΤΑΣΤΗΜΑΤΟΣ":"","NAME":"","Address":"","TIMES":"","CHANGING ROOM":"","POSTCODE":"","LONGITUDE":"","LATITUDE":""},{"":"","ΕΠΩΝΥΜΙΑ ΚΑΤΑΣΤΗΜΑΤΟΣ":"","NAME":"","Address":"","TIMES":"","CHANGING ROOM":"","POSTCODE":"","LONGITUDE":"","LATITUDE":""},{"":"","ΕΠΩΝΥΜΙΑ ΚΑΤΑΣΤΗΜΑΤΟΣ":"","NAME":"","Address":"","TIMES":"","CHANGING ROOM":"","POSTCODE":"","LONGITUDE":"","LATITUDE":""},{"":"","ΕΠΩΝΥΜΙΑ ΚΑΤΑΣΤΗΜΑΤΟΣ":"","NAME":"","Address":"","TIMES":"","CHANGING ROOM":"","POSTCODE":"","LONGITUDE":"","LATITUDE":""},{"":"","ΕΠΩΝΥΜΙΑ ΚΑΤΑΣΤΗΜΑΤΟΣ":"","NAME":"","Address":"","TIMES":"","CHANGING ROOM":"","POSTCODE":"","LONGITUDE":"","LATITUDE":""},{"":"","ΕΠΩΝΥΜΙΑ ΚΑΤΑΣΤΗΜΑΤΟΣ":"","NAME":"","Address":"","TIMES":"","CHANGING ROOM":"","POSTCODE":"","LONGITUDE":"","LATITUDE":""},{"":"","ΕΠΩΝΥΜΙΑ ΚΑΤΑΣΤΗΜΑΤΟΣ":"","NAME":"","Address":"","TIMES":"","CHANGING ROOM":"","POSTCODE":"","LONGITUDE":"","LATITUDE":""},{"":"","ΕΠΩΝΥΜΙΑ ΚΑΤΑΣΤΗΜΑΤΟΣ":"","NAME":"","Address":"","TIMES":"","CHANGING ROOM":"","POSTCODE":"","LONGITUDE":"","LATITUDE":""},{"":"","ΕΠΩΝΥΜΙΑ ΚΑΤΑΣΤΗΜΑΤΟΣ":"","NAME":"","Address":"","TIMES":"","CHANGING ROOM":"","POSTCODE":"","LONGITUDE":"","LATITUDE":""},{"":"","ΕΠΩΝΥΜΙΑ ΚΑΤΑΣΤΗΜΑΤΟΣ":"","NAME":"","Address":"","TIMES":"","CHANGING ROOM":"","POSTCODE":"","LONGITUDE":"","LATITUDE":""},{"":"","ΕΠΩΝΥΜΙΑ ΚΑΤΑΣΤΗΜΑΤΟΣ":"","NAME":"","Address":"","TIMES":"","CHANGING ROOM":"","POSTCODE":"","LONGITUDE":"","LATITUDE":""},{"":"","ΕΠΩΝΥΜΙΑ ΚΑΤΑΣΤΗΜΑΤΟΣ":"","NAME":"","Address":"","TIMES":"","CHANGING ROOM":"","POSTCODE":"","LONGITUDE":"","LATITUDE":""},{"":"","ΕΠΩΝΥΜΙΑ ΚΑΤΑΣΤΗΜΑΤΟΣ":"","NAME":"","Address":"","TIMES":"","CHANGING ROOM":"","POSTCODE":"","LONGITUDE":"","LATITUDE":""}]